City,Country,Date,Lat,Lng,Cloudiness,Humidity,Max Temp,Wind Speed
Itarema,BR,1554844422,-2.92,-39.92,68,91,26.2,3.06
Pakxan,LA,1554844422,18.39,103.66,0,93,22.0,0.26
Yellowknife,CA,1554844340,62.45,-114.38,20,74,7.22,3.1
Airai,TL,1554844423,-8.93,125.41,0,85,20.5,0.76
Ponta do Sol,BR,1554844423,-20.63,-46.0,44,74,23.4,1.66
Los Llanos de Aridane,ES,1554844207,28.66,-17.92,56,77,18.0,4.6
Mataura,NZ,1554844206,-46.19,168.86,92,91,14.44,5.01
Mazabuka,ZM,1554844423,-15.86,27.75,20,72,20.6,3.31
Cidreira,BR,1554844424,-30.17,-50.22,0,71,21.05,5.71
Ullapool,GB,1554844219,57.9,-5.16,0,75,6.11,4.47
Tasiilaq,GL,1554839400,65.61,-37.64,92,47,3.0,4.6
Mangrol,IN,1554844424,25.33,76.51,12,61,22.4,1.46
Clarence Town,AU,1554844252,-32.59,151.78,75,87,18.89,4.1
Atuona,PF,1554844425,-9.8,-139.03,76,100,28.4,2.91
Nabire,ID,1554844425,-3.36,135.5,92,96,20.3,0.86
Bambous Virieux,MU,1554840238,-20.34,57.76,75,94,24.0,6.2
Erzin,TR,1554843000,36.95,36.2,75,82,17.78,9.3
Busselton,AU,1554844386,-33.64,115.35,0,55,11.67,2.56
New Norfolk,AU,1554844395,-42.78,147.06,75,70,9.0,4.6
Qaqortoq,GL,1554839400,60.72,-46.03,76,36,9.0,14.9
Acapulco,MX,1554839460,16.86,-99.88,90,74,28.0,5.7
Esperance,TT,1554844208,10.24,-61.45,40,55,30.56,7.2
San Quintin,PH,1554844427,17.54,120.52,0,81,21.9,1.61
Bluff,AU,1554844427,-23.58,149.07,32,86,16.15,1.06
Albany,US,1554844262,42.65,-73.75,75,76,13.33,3.6
Buala,SB,1554844428,-8.15,159.59,76,100,26.9,3.46
Saint-Philippe,CA,1554844231,45.36,-73.48,90,93,1.11,7.7
Vila,IT,1554844386,45.18,8.4,0,71,14.44,3.6
Vaini,IN,1554844428,15.34,74.49,0,79,20.55,1.36
Talnakh,RU,1554844429,69.49,88.39,76,87,-12.5,9.31
Port Alfred,ZA,1554844302,-33.59,26.89,88,94,17.78,6.71
Necochea,AR,1554844429,-38.55,-58.74,32,41,25.15,6.16
Arraial do Cabo,BR,1554840000,-22.97,-42.02,40,88,25.0,1.5
Carnarvon,ZA,1554844430,-30.97,22.13,0,39,12.05,1.41
Iqaluit,CA,1554844321,63.75,-68.52,40,77,-15.0,11.3
Las Vegas,US,1554844259,36.17,-115.15,40,12,28.33,11.3
Bredasdorp,ZA,1554842727,-34.53,20.04,32,82,20.0,5.1
Tayu,JP,1554844351,35.06,136.67,75,81,8.33,2.6
Castro,CL,1554840000,-42.48,-73.76,90,87,14.0,1.5
Tarut,SA,1554841800,26.57,50.06,48,57,25.0,3.6
Novo Oriente,BR,1554844432,-5.54,-40.77,68,71,26.95,1.41
Ushuaia,AR,1554840000,-54.81,-68.31,75,81,9.0,7.2
Tura,IN,1554844432,25.52,90.21,12,95,16.7,2.31
Victoria,BN,1554841800,5.28,115.24,75,94,27.0,1.5
Aljezur,PT,1554844329,37.31,-8.8,76,85,14.44,6.76
Touros,BR,1554840000,-5.2,-35.46,20,70,29.0,4.1
Givors,FR,1554844401,45.58,4.77,0,62,13.0,3.6
Seoul,KR,1554842880,37.57,126.98,90,100,6.0,3.1
Santa Maria da Vitoria,BR,1554844434,-13.39,-44.19,64,58,28.2,1.31
Caravelas,BR,1554844434,-17.73,-39.27,20,96,28.4,6.36
Husavik,CA,1554844218,50.56,-96.99,12,67,-1.67,2.68
Mar del Plata,AR,1554844377,-46.43,-67.52,80,46,20.45,5.01
Rikitea,PF,1554844434,-23.12,-134.97,0,100,24.3,4.81
Broome,GB,1554844403,52.47,1.45,56,81,8.0,5.1
Hermanus,ZA,1554843678,-34.42,19.24,24,85,20.0,4.02
East London,ZA,1554844435,-33.02,27.91,92,100,21.7,8.06
Avarua,CK,1554841800,-21.21,-159.78,8,65,27.0,4.6
Mana,RS,1554843600,43.52,20.24,75,100,11.0,1.5
Puerto Ayora,EC,1554843617,-0.74,-90.35,40,66,30.0,4.1
Portland,US,1554844218,45.52,-122.67,75,54,13.89,7.2
Tiksi,RU,1554844436,71.64,128.87,20,78,-15.6,4.51
Goldap,PL,1554844437,54.31,22.3,0,78,-1.2,3.11
Dourbali,TD,1554844437,11.81,15.86,0,26,29.5,3.76
Mahebourg,MU,1554840238,-20.41,57.7,75,94,24.0,6.2
Kapaa,US,1554844410,22.08,-159.32,20,69,26.0,5.1
Amalapuram,IN,1554844278,16.58,82.0,8,86,25.5,1.76
Longyearbyen,NO,1554839400,78.22,15.63,75,88,0.0,8.2
Qaanaaq,GL,1554844438,77.48,-69.36,88,100,-8.05,1.11
Punta Arenas,CL,1554844347,-53.16,-70.91,75,87,9.0,2.1
Galmaarden,BE,1554844427,50.75,3.97,92,93,12.22,1.0
Beloha,MG,1554844439,-25.17,45.06,0,92,22.1,1.41
Mackay,CA,1554841620,53.65,-115.58,75,42,11.0,1.0
Parrita,CR,1554844057,9.52,-84.33,40,64,30.0,5.1
Sola,NO,1554844219,58.89,5.65,40,80,2.0,1.5
Boddam,GB,1554844400,57.47,-1.78,0,98,5.0,1.0
Flin Flon,CA,1554840000,54.77,-101.88,75,54,-1.0,2.6
Zhigansk,RU,1554844440,66.77,123.37,0,63,-12.8,1.56
Atar,MR,1554844440,20.52,-13.05,0,16,23.3,3.46
Hambantota,LK,1554844340,6.12,81.12,76,100,28.2,2.76
Bathsheba,BB,1554840000,13.22,-59.52,40,65,27.0,7.2
Doha,QA,1554841800,25.29,51.53,0,50,26.0,3.1
Butaritari,KI,1554844441,3.07,172.79,80,100,28.2,4.76
Kavieng,PG,1554844442,-2.57,150.8,48,100,28.05,2.01
Pisco,PE,1554840000,-13.71,-76.2,8,30,22.0,10.3
Vardo,US,1554844418,39.62,-77.74,20,38,26.11,6.2
Noumea,NC,1554841800,-22.28,166.46,0,88,23.0,2.51
Fortuna,ES,1554844431,38.18,-1.13,20,48,16.11,4.1
Cape Town,ZA,1554844326,-33.93,18.42,0,77,20.0,3.6
Luanda,AO,1554840000,-8.83,13.24,75,83,27.0,4.6
Berberati,CF,1554844443,4.26,15.79,48,84,23.8,1.16
Polyarnyye Zori,RU,1554844443,67.37,32.5,24,70,-5.15,3.26
Aklavik,CA,1554840000,68.22,-135.01,75,65,-13.0,2.6
Chokurdakh,RU,1554844444,70.62,147.9,56,84,-9.95,4.46
Progreso,UY,1554843618,-34.68,-56.22,0,64,23.0,4.1
Igrim,RU,1554844444,63.19,64.42,92,77,-3.6,3.31
Jamestown,AU,1554844445,-33.21,138.6,0,84,3.3,2.46
Porto Novo,BR,1554840000,-23.68,-45.44,90,94,20.0,2.6
Havre-Saint-Pierre,CA,1554841620,50.23,-63.6,20,63,-3.0,10.8
Talcahuano,CL,1554840000,-36.72,-73.12,75,72,17.0,1.5
Waipawa,NZ,1554844446,-39.94,176.59,8,85,15.7,4.31
Villanueva,NI,1554843600,12.96,-86.82,40,46,34.0,2.1
Bethel,US,1554841860,60.79,-161.76,75,74,2.0,4.1
Nikolskoye,RU,1554844236,59.7,30.79,75,91,1.67,1.0
Juterbog,DE,1554844398,51.98,13.08,0,60,7.22,5.7
Dudinka,RU,1554844442,69.41,86.18,80,84,-12.85,8.11
Isangel,VU,1554840000,-19.55,169.27,20,100,22.0,3.56
Berlevag,NO,1554843000,70.86,29.09,75,79,-3.0,5.1
Riyadh,SA,1554840000,24.63,46.72,40,60,20.0,5.1
Kudat,MY,1554840000,6.89,116.84,75,88,28.0,1.5
Hastings,NZ,1554844304,-39.64,176.84,0,96,16.0,3.11
Lebu,ET,1554844449,8.96,38.73,92,75,14.8,1.21
Georgetown,GY,1554840000,6.8,-58.16,40,70,30.0,6.2
Freeport,BS,1554840000,26.54,-78.7,90,78,27.0,7.2
Lahat,ID,1554844450,-3.78,103.55,44,95,23.35,0.96
Boone,US,1554844274,36.22,-81.67,1,40,23.89,6.7
Tsuruoka,JP,1554844450,38.61,139.81,68,86,-1.3,0.96
Pangnirtung,CA,1554840000,66.15,-65.72,75,85,-12.0,3.6
State College,US,1554844171,40.79,-77.86,5,19,19.44,7.7
Severo-Kurilsk,RU,1554844451,50.68,156.12,12,100,-1.2,4.01
Paita,PE,1554840000,-5.09,-81.11,0,290,17.0,6.7
Nalut,LY,1554844451,31.86,10.98,20,39,16.8,3.11
Ahuimanu,US,1554844388,21.44,-157.84,40,69,28.89,5.1
Ambon,FR,1554844406,47.55,-2.56,0,87,10.0,3.1
Wanning,AT,1554844438,48.64,13.53,75,58,12.0,1.5
Salinopolis,BR,1554844452,-0.61,-47.36,76,100,25.75,1.66
Arman,RU,1554844452,59.7,150.17,88,69,-4.2,1.56
Crateus,BR,1554844452,-5.18,-40.68,68,71,26.95,1.41
Klaksvik,FO,1554843000,62.23,-6.59,80,86,3.0,1.0
Sabang,PH,1554844453,13.72,123.58,48,95,25.8,4.01
San Patricio,PY,1554844453,-26.98,-56.83,8,72,26.1,0.96
Ancud,CL,1554840000,-41.87,-73.83,90,87,14.0,1.5
Galveston,US,1554844425,40.58,-86.19,1,39,20.0,4.6
Clyde River,CA,1554841200,70.47,-68.59,20,45,-15.0,1.0
Thompson,CA,1554840000,55.74,-97.86,75,42,-1.0,2.6
Oktyabrskiy,RU,1554843946,55.61,37.97,0,75,12.22,2.0
Hilo,US,1554844414,19.71,-155.08,40,61,26.0,1.5
Akdepe,TM,1554841800,42.05,59.39,0,31,16.0,2.1
Hami,CN,1554844455,42.84,93.51,0,47,4.2,4.46
Upernavik,GL,1554844455,72.79,-56.15,92,100,-4.25,6.46
Ovsyanka,RU,1554844456,53.58,126.91,0,49,-3.15,2.86
College,US,1554844420,64.86,-147.8,75,48,11.67,2.01
Kahului,US,1554844242,20.89,-156.47,90,69,25.56,5.36
Whitianga,NZ,1554844210,-36.83,175.7,0,92,17.78,0.45
Barrow,AR,1554844457,-38.31,-60.23,32,32,25.8,7.06
Bandarbeyla,SO,1554844457,9.49,50.81,68,100,27.55,5.31
Kieta,PG,1554844457,-6.22,155.63,24,100,26.05,2.81
Karratha,AU,1554844457,-20.74,116.85,88,64,26.9,1.06
Beringovskiy,RU,1554844457,63.05,179.32,68,96,-11.65,6.01
Smithers,CA,1554840000,54.78,-127.17,75,52,8.0,2.6
Kaitangata,NZ,1554844382,-46.28,169.85,100,79,12.78,0.89
Mahajanga,MG,1554840000,-15.72,46.32,20,83,28.0,3.1
Nanortalik,GL,1554844458,60.14,-45.24,0,81,2.55,21.06
Adrar,DZ,1554840000,27.87,-0.29,0,10,25.0,4.1
Point Pedro,LK,1554844459,9.82,80.23,12,100,28.4,3.91
Morro Bay,US,1554844446,35.37,-120.85,1,55,19.0,12.3
Hithadhoo,MV,1554844459,-0.6,73.08,48,100,28.8,1.31
Aljustrel,PT,1554843709,37.88,-8.16,20,87,13.33,4.1
San Ramon,NI,1554844377,12.92,-85.84,88,61,26.67,1.79
Alpena,US,1554844258,45.06,-83.43,90,65,8.89,4.1
Bria,CF,1554844460,6.54,21.99,76,95,21.45,1.46
Mosquera,CO,1554840000,4.71,-74.23,75,59,18.0,5.1
Grand-Santi,GF,1554844460,4.27,-54.38,92,79,26.25,1.26
Shwebo,MM,1554844460,22.57,95.7,0,86,20.65,2.66
Ribeira Grande,PT,1554841800,38.52,-28.7,75,93,16.0,9.3
Norman Wells,CA,1554840000,65.28,-126.83,75,67,-6.0,5.7
Muhos,FI,1554844156,64.81,26.0,0,58,-2.0,4.1
Ostrovnoy,RU,1554844461,68.05,39.51,32,83,-6.2,3.91
Ivanteyevka,RU,1554843946,55.97,37.92,0,87,12.22,2.0
Yumen,CN,1554844462,40.29,97.04,0,62,-5.2,3.31
Dubti,ET,1554844462,11.74,41.09,0,42,26.9,3.41
Provideniya,RU,1554841800,64.42,-173.23,90,85,-5.0,2.0
Mpika,ZM,1554844463,-11.84,31.4,0,76,20.35,4.56
Saldanha,PT,1554844463,41.42,-6.55,92,93,7.15,4.81
Belaya Gora,RU,1554844463,68.54,146.19,44,64,-12.95,1.06
Walla Walla,US,1554844445,46.06,-118.33,90,71,15.0,7.2
Cayenne,GF,1554841800,4.94,-52.33,92,94,24.0,1.5
Preston,GB,1554844454,53.76,-2.71,0,65,8.0,6.7
Eischen,LU,1554844444,49.68,5.88,75,100,10.0,4.6
Pacifica,US,1554844462,37.61,-122.49,20,48,19.0,9.3
Reconquista,AR,1554844465,-29.14,-59.64,0,51,26.55,4.06
Nizhniy Tsasuchey,RU,1554844465,50.52,115.13,24,56,-3.2,5.11
Vila Velha,BR,1554844198,-3.71,-38.6,40,78,28.0,3.1
Naryan-Mar,RU,1554844466,67.67,53.09,0,58,-16.5,1.21
Les Cayes,HT,1554844466,18.19,-73.75,8,95,26.8,7.26
Torbay,CA,1554844102,47.66,-52.73,75,43,2.22,10.3
Sinnamary,GF,1554844466,5.38,-52.96,92,98,26.05,4.21
Mahibadhoo,MV,1554844467,3.78,72.97,88,100,29.05,0.41
Saint George,GR,1554843000,39.45,22.34,75,93,13.0,1.61
Key West,US,1554844398,47.93,-96.78,90,73,-1.67,5.1
Bosobolo,CD,1554844467,4.19,19.88,80,82,24.25,4.21
Aksarayskiy,RU,1554841800,46.79,48.01,0,76,11.0,3.0
Rio Gallegos,AR,1554840000,-51.62,-69.22,75,71,11.0,10.3
Panaba,MX,1554844468,21.28,-88.27,12,54,29.95,2.66
Krasnokamensk,RU,1554844468,50.1,118.04,32,61,-8.65,1.36
Nelson Bay,AU,1554844252,-32.72,152.14,75,87,18.89,4.1
Nuqui,CO,1554840000,5.71,-77.27,75,88,27.0,2.56
Kirakira,SB,1554844469,-10.46,161.92,92,100,27.7,7.41
Ust-Tsilma,RU,1554844469,65.44,52.15,8,83,-8.85,2.31
Kruisfontein,ZA,1554844470,-34.0,24.73,36,83,18.2,4.81
Dmitriyevka,GE,1554844470,43.08,41.0,12,89,6.65,1.46
Muros,ES,1554844276,42.77,-9.06,75,100,13.33,2.6
Desbiens,CA,1554844451,48.42,-71.95,90,92,0.0,3.6
Nador,MA,1554841800,35.17,-2.93,0,67,16.0,7.2
Sychevka,RU,1554844471,55.83,34.27,92,96,6.65,1.36
Senneterre,CA,1554840000,48.39,-77.24,90,74,-1.0,5.7
Westport,IE,1554844384,53.8,-9.52,0,78,9.44,0.89
Nouakchott,MR,1554841800,18.08,-15.98,0,57,24.0,6.7
Lethem,GY,1554844471,3.38,-59.8,92,59,30.8,5.26
Madinat Sittah Uktubar,EG,1554844327,29.82,31.05,0,55,18.0,3.1
Jackson,US,1554844220,35.61,-88.82,1,39,27.78,6.7
Saint-Joseph,FR,1554844211,43.56,6.97,0,87,12.0,2.6
Bayir,TR,1554843000,37.27,28.22,75,72,15.0,4.6
Bereda,ES,1554844440,43.27,-7.54,40,87,12.22,3.1
Owando,CG,1554844473,-0.49,15.91,0,87,25.75,0.91
Walvis Bay,NA,1554843724,-22.95,14.51,8,87,14.0,1.0
Biloela,AU,1554844474,-24.4,150.51,0,88,15.45,1.56
Vitoria,BR,1554844474,-8.36,-72.77,0,30,35.4,1.31
Nome,US,1554844370,30.04,-94.42,1,25,32.78,2.71
Mehamn,NO,1554843000,71.03,27.85,75,79,-3.0,5.1
Ishigaki,JP,1554844474,24.34,124.16,76,95,25.45,7.06
Egvekinot,RU,1554844475,66.32,-179.17,20,82,-16.6,1.41
Meulaboh,ID,1554844475,4.14,96.13,36,100,26.1,1.91
Asyut,EG,1554840000,27.18,31.19,0,39,18.0,6.7
Teya,MX,1554843609,21.05,-89.07,90,65,27.0,4.1
Sao Filipe,CV,1554844476,14.9,-24.5,0,95,22.15,8.11
Dikson,RU,1554844476,73.51,80.55,68,100,-8.65,9.26
Horizontina,BR,1554844476,-27.63,-54.31,20,64,26.2,1.21
Cherskiy,RU,1554844477,68.75,161.3,64,70,-7.7,1.36
Zhangye,CN,1554844477,38.94,100.46,8,87,-1.95,1.21
Suining,CN,1554844477,30.51,105.57,68,74,19.7,3.91
Sechura,PE,1554844477,-5.56,-80.82,0,60,27.2,7.46
Yar-Sale,RU,1554844478,66.83,70.83,20,71,-12.8,6.11
Dingle,PH,1554844478,11.0,122.67,32,86,25.7,3.21
Rognan,NO,1554844440,67.1,15.4,0,53,-2.78,5.1
Mahuta,TZ,1554844478,-10.87,39.42,88,84,25.3,3.06
Antalaha,MG,1554844479,-14.9,50.28,48,94,25.0,4.26
Baghdad,IQ,1554840000,33.3,44.38,20,64,20.0,6.2
Sept-Iles,CA,1554844098,50.2,-66.38,75,39,0.0,1.5
Saskylakh,RU,1554844479,71.97,114.09,8,54,-20.75,1.81
Khatanga,RU,1554844480,71.98,102.47,36,72,-17.55,4.91
Bakel,SN,1554844480,14.9,-12.46,0,22,29.5,3.41
Kamsack,CA,1554840000,51.56,-101.9,75,59,1.0,2.1
Hobart,AU,1554844455,-42.88,147.33,75,70,9.0,4.6
Labuhan,ID,1554844481,-2.54,115.51,32,97,22.55,0.76
Half Moon Bay,US,1554844462,37.46,-122.43,40,51,20.0,9.3
Strezhevoy,RU,1554841800,60.73,77.6,0,73,-3.0,3.0
Tuy Hoa,VN,1554844482,13.08,109.3,32,99,22.4,1.46
Port Keats,AU,1554844482,-14.25,129.55,92,100,24.05,6.31
Port Lincoln,AU,1554844484,-34.72,135.86,44,100,12.15,2.86
Homer,US,1554844183,59.64,-151.54,75,92,8.89,3.6
Chapais,CA,1554840000,49.78,-74.86,1,73,0.0,5.1
Contepec,MX,1554844262,19.95,-100.16,44,27,27.22,3.58
Diego de Almagro,CL,1554844485,-26.39,-70.05,0,75,21.3,1.61
Celestun,MX,1554844485,20.87,-90.4,88,100,25.2,5.66
Santa Rosa del Sur,CO,1554844485,7.96,-74.05,48,68,30.45,1.51
Dangriga,BZ,1554843654,16.97,-88.23,40,52,33.0,4.1
Adolfo Lopez Mateos,MX,1554844420,26.8,-109.39,0,25,37.22,1.34
Hit,IQ,1554844486,33.64,42.83,0,48,20.25,6.26
Ilulissat,GL,1554839400,69.22,-51.1,20,91,0.0,3.1
Broken Hill,AU,1554840000,-31.97,141.45,68,71,9.0,4.1
Salalah,OM,1554839400,17.01,54.1,40,78,27.0,2.6
Aldan,RU,1554844487,58.61,125.39,44,71,-4.7,2.11
Abadan,IR,1554840000,30.36,48.26,0,64,22.0,2.1
Yulara,AU,1554840000,-25.24,130.99,0,42,20.0,3.1
Tuatapere,NZ,1554844206,-46.13,167.69,92,91,14.44,6.61
Djibo,BF,1554844488,14.1,-1.63,0,17,27.2,4.41
Port Hedland,AU,1554841800,-20.31,118.58,68,94,27.0,2.1
Lorengau,PG,1554844488,-2.02,147.27,0,98,28.6,2.86
Sur,OM,1554844489,22.57,59.53,0,84,27.15,1.76
Padang,ID,1554844490,-0.92,100.36,88,100,26.55,2.96
Katobu,ID,1554844490,-4.94,122.53,64,98,27.75,0.86
Sabzevar,IR,1554844490,36.21,57.68,0,93,8.2,1.66
Huanuco,PE,1554844307,-9.93,-76.24,0,34,19.8,1.86
Mumford,GH,1554844490,5.26,-0.76,12,82,27.25,4.61
Ko Samui,TH,1554844491,9.54,99.94,24,100,29.55,4.21
Chernyshevskiy,RU,1554844491,63.01,112.47,80,89,-1.2,4.66
Ixtapa,MX,1554844207,20.71,-105.21,5,78,26.67,5.7
Muravlenko,RU,1554844492,63.79,74.5,0,80,-9.35,5.11
Bera,BD,1554844492,24.08,89.61,80,96,21.0,3.41
Callaway,US,1554844424,46.98,-95.91,1,64,3.33,4.1
Zhob,PK,1554844493,31.34,69.45,0,87,7.3,1.16
Bajos de Haina,DO,1554844412,18.41,-70.03,20,62,29.0,4.1
Margate,AU,1554844455,-43.03,147.26,75,70,9.0,4.6
Santa Maria,BR,1554840000,-29.69,-53.81,0,53,25.0,4.6
Tuapse,RU,1554844495,44.1,39.07,0,73,11.25,0.86
Wonthaggi,AU,1554844445,-38.6,145.59,92,83,13.33,1.41
Inverness,GB,1554844207,57.48,-4.23,0,75,6.11,4.6
Bonavista,CA,1554843699,48.65,-53.11,32,49,1.67,6.71
Carutapera,BR,1554844496,-1.2,-46.02,92,92,26.25,1.31
Butembo,CD,1554844497,0.12,29.29,92,100,17.25,1.01
Avera,US,1554844443,33.19,-82.53,1,57,26.67,2.6
Bogalusa,US,1554844470,30.79,-89.85,40,44,27.78,5.1
Faya,SA,1554840000,18.39,42.45,0,55,20.0,3.1
Valparaiso,US,1554844154,41.47,-87.06,75,65,20.56,2.1
Bato,PH,1554844498,13.36,123.37,68,96,24.45,1.71
Channel-Port aux Basques,CA,1554844498,47.57,-59.14,36,100,-3.2,9.51
Havoysund,NO,1554843000,71.0,24.66,20,79,-5.0,1.5
Larimna,GR,1554844395,38.57,23.28,75,66,15.0,2.1
Constitucion,MX,1554844215,23.99,-104.67,5,7,24.0,3.6
Hammerfest,NO,1554843000,70.66,23.68,20,85,-4.0,3.1
Ketchikan,US,1554841080,55.34,-131.65,75,93,7.0,7.2
Hyeres,FR,1554844476,43.12,6.14,0,76,13.33,4.1
Kande,UG,1554840000,0.3,32.05,75,88,21.0,3.1
Marawi,PH,1554843701,8.0,124.29,0,92,25.0,0.89
Kushima,JP,1554844345,31.5,131.29,75,88,20.0,10.3
Nioro,GM,1554844501,13.79,-15.05,0,25,31.8,3.91
Sayyan,YE,1554844501,15.17,44.32,0,88,9.45,0.61
Port Elizabeth,US,1554844420,39.31,-74.98,1,72,23.89,3.6
Znamenskoye,RU,1554844502,57.13,73.82,0,80,-1.45,3.16
Atbasar,KZ,1554844502,51.81,68.36,0,84,1.65,2.51
Byron Bay,AU,1554844270,-28.65,153.62,8,78,23.33,5.1
Flinders,AU,1554844445,-34.58,150.85,0,87,17.22,2.6
Palembang,ID,1554844503,-2.99,104.76,64,90,25.2,0.51
Chuy,UY,1554844305,-33.69,-53.46,0,73,22.3,3.86
Mamallapuram,IN,1554841800,12.63,80.17,20,84,30.0,1.5
Baijiantan,CN,1554844504,45.63,85.18,88,35,5.95,3.41
Aswan,EG,1554840000,24.09,32.9,0,20,28.0,4.1
Ghanzi,BW,1554844504,-21.7,21.65,76,93,16.7,2.21
Khandyga,RU,1554844504,62.65,135.58,80,88,-3.2,1.81
Baiyin,CN,1554840000,36.55,104.13,0,45,6.0,3.0
Nhulunbuy,AU,1554841800,-12.18,136.78,40,83,25.0,2.1
Cabo San Lucas,MX,1554843723,22.89,-109.91,5,27,35.56,4.1
Tommot,RU,1554844506,58.97,126.27,32,71,-4.8,2.61
Mahon,IE,1554844196,51.89,-8.4,75,87,8.33,3.1
Sira,IN,1554844506,13.74,76.91,0,88,20.05,1.61
Geraldton,CA,1554840000,49.72,-86.95,90,68,-2.0,5.7
Koumac,NC,1554844506,-20.56,164.28,24,91,24.2,2.31
Sao Joao da Barra,BR,1554840000,-21.64,-41.05,75,94,25.0,7.2
Bulawayo,ZW,1554844507,-20.16,28.59,0,57,20.15,3.66
Gizo,IL,1554844465,31.8,34.94,75,72,17.0,3.6
Sitka,US,1554843675,37.17,-99.65,32,24,30.56,9.39
Sobolevo,RU,1554844508,54.43,31.9,68,93,6.7,1.41
Quelimane,MZ,1554844508,-17.88,36.89,24,93,23.45,1.86
Camacha,PT,1554843600,33.08,-16.33,20,62,17.0,3.6
Taoudenni,ML,1554844508,22.68,-3.98,0,20,17.45,0.96
Ratchaburi,TH,1554843564,13.54,99.82,0,62,31.67,1.16
Obo,CF,1554844509,5.39,26.49,76,92,22.2,2.01
Sisimiut,GL,1554844220,66.94,-53.67,24,97,-2.7,0.66
Rocha,UY,1554844509,-34.48,-54.34,0,61,22.3,2.21
Martapura,ID,1554841800,-3.41,114.85,32,100,25.0,1.0
Utena,LT,1554844510,55.5,25.6,0,72,-0.35,4.71
Tuensang,IN,1554844510,26.24,94.81,92,96,12.8,0.66
Manica,MZ,1554840000,-18.94,32.88,40,83,22.0,0.96
Vestmannaeyjar,IS,1554844324,63.44,-20.27,24,85,5.35,8.51
Gemena,CD,1554844511,3.25,19.78,24,96,21.8,0.71
Puerto Leguizamo,CO,1554844511,-0.19,-74.78,20,38,35.05,1.41
Rafaela,AR,1554844240,-31.25,-61.49,0,40,28.33,2.68
Mata,CU,1554839460,22.63,-79.93,75,69,26.0,3.6
Codrington,AU,1554844270,-28.95,153.24,90,77,21.0,3.6
Ambilobe,MG,1554844512,-13.19,49.05,12,86,23.6,0.26
Glushkovo,RU,1554844512,51.34,34.64,56,71,11.05,3.76
Mount Vernon,US,1554844506,40.91,-73.84,90,87,10.0,4.6
Bilma,NE,1554844513,18.69,12.92,0,12,23.6,4.36
Zhanakorgan,KZ,1554844513,43.91,67.25,88,60,13.9,3.26
Emba,CY,1554843000,34.81,32.42,20,67,17.0,4.6
Velyka Bahachka,UA,1554844513,49.79,33.72,68,65,11.35,2.41
Waterbury,US,1554844513,41.56,-73.05,90,70,10.0,3.1
Iberia,PE,1554844514,-11.41,-69.49,0,26,33.35,1.41
Lagoa,PT,1554844329,37.14,-8.45,0,71,14.44,4.6
Lakselv,NO,1554843000,70.05,24.96,75,85,-3.0,3.1
Hualmay,PE,1554844515,-11.1,-77.61,20,67,23.7,3.21
Sterling,US,1554844462,39.0,-77.4,75,29,27.0,6.7
Palmer,AU,1554844505,-34.85,139.16,75,62,13.89,3.1
Dhidhdhoo,MV,1554844516,6.88,73.1,80,100,29.65,0.21
Charters Towers,AU,1554844516,-20.07,146.27,0,87,17.2,1.21
Paramonga,PE,1554844516,-10.68,-77.82,36,91,20.35,6.36
Rundu,NA,1554844516,-17.91,19.77,76,66,22.5,2.51
Kangaatsiaq,GL,1554844425,68.31,-53.46,0,95,-1.95,5.91
Jalu,LY,1554844432,29.03,21.55,0,34,16.35,4.31
Ushibuka,JP,1554844517,32.19,130.02,92,92,18.05,8.21
Adre,TD,1554844517,13.47,22.2,24,19,27.7,4.46
Vostok,RU,1554844517,46.45,135.83,56,80,-4.45,0.91
Santiago del Estero,AR,1554844258,-27.8,-64.26,0,60,25.65,5.56
Gatton,AU,1554844498,-27.56,152.28,40,93,20.0,1.5
Hata,IN,1554844518,26.74,83.74,0,90,18.5,4.11
Andros,GR,1554844518,37.83,24.93,92,62,15.0,6.7
Okha,RU,1554844518,53.59,142.95,8,70,-7.6,3.36
General Teran,MX,1554844518,25.27,-99.68,0,32,33.5,2.56
San Policarpo,PH,1554844519,12.18,125.51,64,100,25.45,3.61
Shakawe,BW,1554844519,-18.36,21.84,20,81,20.55,1.26
Maraa,BR,1554844519,-1.83,-65.37,24,84,27.8,1.51
Port-Gentil,GA,1554840000,-0.72,8.78,20,83,29.0,3.6
Moissala,TD,1554844520,8.34,17.77,64,66,27.65,2.81
Quatre Cocos,MU,1554840238,-20.21,57.76,75,94,24.0,6.2
Kamina,CD,1554844521,-8.74,25.0,48,92,20.05,0.61
Grindavik,IS,1554844018,63.84,-22.43,90,70,6.0,7.2
Bolobo,CD,1554844522,-2.17,16.23,24,85,27.05,0.96
Henties Bay,NA,1554843724,-22.12,14.28,48,93,13.89,2.24
Tezu,IN,1554844522,27.93,96.16,92,98,12.65,0.76
Sioux Lookout,CA,1554842040,50.1,-91.92,90,73,-4.0,3.1
Mombetsu,JP,1554844523,44.35,143.35,0,89,0.1,2.51
Lae,PG,1554843600,-6.72,146.98,40,88,25.0,1.5
Hofn,IS,1554844523,64.25,-15.21,92,100,3.7,2.51
Arica,CL,1554840000,-18.48,-70.32,0,56,24.0,6.2
Tuktoyaktuk,CA,1554840000,69.44,-133.03,90,77,-15.0,3.1
Riachao das Neves,BR,1554844353,-11.75,-44.91,12,83,25.55,1.21
Yuxia,CN,1554840000,34.06,108.63,92,93,10.0,3.0
Beyneu,KZ,1554844524,45.32,55.19,20,64,8.25,1.26
Saint Anthony,US,1554844278,43.97,-111.68,90,60,8.89,5.1
Lappeenranta,FI,1554844512,61.06,28.19,90,96,0.56,3.6
Talaya,RU,1554844518,55.79,84.89,0,68,-1.0,3.0
Fare,PF,1554844525,-16.7,-151.02,32,100,27.4,1.66
Kango,GA,1554844525,0.19,10.1,64,78,27.15,1.61
Palanga,RO,1554844336,44.45,25.08,100,72,13.33,3.91
Hamilton,BM,1554843642,32.3,-64.78,75,73,22.78,7.2
Chase,US,1554844522,43.89,-85.64,90,65,15.0,5.1
La Rioja,AR,1554844527,-29.41,-66.86,0,66,23.55,1.66
Guerrero Negro,MX,1554844527,27.97,-114.04,0,52,24.15,4.61
Sukumo,JP,1554844527,32.94,132.72,100,96,15.95,8.41
San Cristobal,EC,1554844522,-0.39,-78.55,40,48,21.0,5.1
Mount Gambier,AU,1554840000,-37.83,140.78,90,87,9.0,2.1
Bellview,US,1554844502,32.78,-95.7,1,28,31.11,2.56
Pevek,RU,1554844529,69.7,170.27,0,86,-16.55,2.96
Marsh Harbour,BS,1554844388,26.54,-77.06,80,91,26.3,7.91
Kandrian,PG,1554844529,-6.21,149.55,88,97,23.8,1.06
Mayumba,GA,1554844529,-3.44,10.65,76,97,27.0,2.56
Tevaitoa,PF,1554844530,-16.78,-151.5,32,100,27.4,1.66
Hetauda,NP,1554841200,27.43,85.03,75,87,16.0,1.41
Tallahassee,US,1554844524,30.44,-84.28,75,54,28.33,6.7
Buxton,GB,1554844511,53.26,-1.91,88,75,7.22,3.1
Dzhebariki-Khaya,RU,1554844531,62.22,135.8,80,88,-3.2,1.81
Itaituba,BR,1554840000,-4.26,-55.99,75,78,28.0,0.86
Marshfield,US,1554844288,42.09,-70.71,20,93,9.44,5.1
Horta,ES,1554844526,41.43,2.16,0,93,12.78,1.0
Vestmanna,FO,1554843000,62.16,-7.17,48,86,3.0,1.0
Pokosnoye,RU,1554844532,55.53,101.05,24,66,-5.05,2.01
Mehran,IR,1554840000,33.12,46.17,0,87,10.0,2.1
Havre,US,1554844529,48.55,-109.68,90,61,9.0,7.2
Pascagoula,US,1554844525,30.37,-88.56,40,54,27.0,5.7
Innisfail,CA,1554844517,52.02,-113.95,75,20,14.0,5.7
Huarmey,PE,1554844533,-10.07,-78.15,12,55,25.05,2.06
Eldoret,KE,1554844504,0.52,35.27,76,96,14.1,0.51
Nehe,CN,1554844534,48.48,124.88,44,67,-2.15,1.06
Tadine,NC,1554844534,-21.55,167.88,0,93,26.1,3.66
San Jose,PH,1554844495,15.79,120.99,32,95,21.9,0.91
Shenjiamen,CN,1554844535,29.96,122.3,76,99,12.15,14.66
Dandong,CN,1554844535,40.12,124.37,92,92,3.8,1.16
Narsaq,GL,1554843000,60.91,-46.05,44,36,9.0,14.4
Shimoda,JP,1554844511,34.7,138.93,92,96,6.67,4.91
Peniche,PT,1554844510,39.36,-9.38,20,76,13.0,4.1
Amos,CA,1554840000,48.57,-78.12,90,74,-1.0,5.7
Palana,RU,1554844537,59.08,159.95,44,74,-6.45,1.51
Road Town,VG,1554844332,18.42,-64.62,40,65,28.0,4.6
Cerignola,IT,1554843698,41.26,15.9,75,93,12.22,3.6
Lagos,NG,1554840000,6.46,3.39,20,89,29.0,3.96
Brae,GB,1554843000,60.4,-1.35,20,97,6.0,5.7
Dunedin,NZ,1554844342,-45.87,170.5,92,81,15.0,1.79
Dungarvan,IE,1554844350,52.09,-7.62,75,87,9.44,3.1
Naberera,TZ,1554844539,-4.2,36.93,24,95,19.05,2.56
Honiara,SB,1554844539,-9.43,159.96,92,100,23.8,1.06
Alofi,NU,1554840000,-19.06,-169.92,75,88,28.0,1.5
Eltham,GB,1554844530,51.45,0.05,20,75,8.33,4.1
Zelenoborskiy,RU,1554844540,66.84,32.36,24,64,-5.35,4.31
Katsuura,JP,1554843892,33.93,134.5,90,87,11.0,12.3
Mookane,BW,1554844540,-23.68,26.66,8,85,16.8,1.61
Syasstroy,RU,1554844540,60.14,32.56,0,90,-0.05,1.06
Billings,US,1554844200,45.79,-108.5,90,81,8.33,5.7
George,NG,1554840000,6.63,3.35,20,89,29.0,3.96
Xihe,CN,1554844541,34.02,105.29,92,96,5.65,1.01
Jesup,US,1554844541,31.61,-81.89,1,57,27.22,1.5
Komsomolskiy,RU,1554844542,67.55,63.78,48,82,-10.55,3.81
Aksarka,RU,1554844542,66.56,67.8,8,74,-14.6,3.76
Makarska,HR,1554843600,43.3,17.02,64,87,14.0,2.6
Hobyo,SO,1554844543,5.35,48.53,64,91,26.15,3.76
Salto,UY,1554840000,-31.39,-57.96,0,48,28.0,5.1
Kavaratti,IN,1554844543,10.57,72.64,20,100,29.3,2.81
Wabrzezno,PL,1554844543,53.28,18.95,0,69,3.33,3.6
Naze,NG,1554844544,5.43,7.07,80,85,26.8,2.76
Laibin,CN,1554844544,23.74,109.23,0,86,23.0,3.06
Roald,NO,1554844533,62.58,6.12,20,55,3.0,9.8
Nykoping,SE,1554841200,58.75,17.01,75,92,0.0,6.2
Zaros,GR,1554844514,35.13,24.9,20,71,15.0,3.6
Soyo,AO,1554844545,-6.13,12.37,100,80,28.3,3.21
Lompoc,US,1554844446,34.64,-120.46,1,59,23.89,10.8
Mufumbwe,ZM,1554844545,-13.68,24.8,48,92,19.1,2.21
Paracatu,BR,1554844546,-17.22,-46.87,36,68,26.6,2.06
Tres Arroyos,AR,1554844546,-38.38,-60.28,32,32,25.8,7.06
Cravo Norte,CO,1554844546,6.3,-70.2,92,70,27.5,2.76
Ostersund,SE,1554843119,63.18,14.64,0,58,-2.22,4.1
Islampur,IN,1554844547,26.26,88.19,0,95,16.8,2.41
Paripiranga,BR,1554844547,-10.68,-37.86,68,61,28.25,3.71
Tiznit,MA,1554844547,29.7,-9.73,24,81,16.85,2.21
Qasigiannguit,GL,1554839400,68.82,-51.19,20,91,0.0,3.1
Troitsko-Pechorsk,RU,1554844547,62.71,56.19,92,91,-2.45,2.86
Karaton,ID,1554844347,-6.34,106.1,20,88,26.0,1.5
Vryburg,ZA,1554844548,-26.96,24.73,8,93,14.35,3.41
Hasaki,JP,1554844063,35.73,140.83,75,75,6.11,1.0
Praia,BR,1554844523,-20.25,-43.81,40,65,26.0,3.1
Vredendal,ZA,1554844549,-31.68,18.49,12,96,14.3,1.21
Teguldet,RU,1554844549,57.31,88.17,88,87,0.2,2.11
Pacific Grove,US,1554844543,36.62,-121.92,1,59,20.0,8.7
Makakilo City,US,1554844453,21.35,-158.09,20,54,28.89,4.6
Oum Hadjer,TD,1554844549,13.3,19.7,0,22,28.3,3.91
Huadian,CN,1554844550,42.97,126.75,80,70,-0.75,0.86
Fort Nelson,CA,1554840000,58.81,-122.69,20,29,11.0,2.6
Kudahuvadhoo,MV,1554844550,2.67,72.89,88,100,28.8,0.66
Faanui,PF,1554844550,-16.48,-151.75,56,100,28.55,2.41
Alexandria,US,1554844061,31.31,-92.44,40,48,30.0,4.1
Aripuana,BR,1554844504,-9.17,-60.63,44,92,26.2,0.86
Sulangan,PH,1554844551,11.14,123.72,8,100,27.7,7.01
Matli,PK,1554844551,25.04,68.66,48,53,27.45,5.26
Cascais,PT,1554844404,38.7,-9.42,20,76,14.0,4.1
Huainan,CN,1554844552,32.59,117.01,64,85,7.05,5.66
Kaseda,JP,1554844345,31.42,130.32,75,88,20.0,10.3
Pasni,PK,1554844552,25.26,63.48,0,94,25.3,3.96
Pandan,PH,1554844552,11.72,122.09,68,99,27.45,7.61
Srednekolymsk,RU,1554844553,67.46,153.71,8,82,-8.95,1.06
Amga,RU,1554844553,60.89,131.98,48,78,-3.3,3.31
Nautla,MX,1554844553,20.22,-96.78,0,100,24.3,4.16
Puerto Quijarro,BO,1554840000,-19.0,-57.72,20,51,31.0,2.1
Deputatskiy,RU,1554844553,69.3,139.9,20,72,-15.15,1.81
Los Negros,CU,1554839460,20.23,-76.31,40,54,29.0,4.1
Mandalgovi,MN,1554844554,45.76,106.27,68,69,-3.8,3.91
Na Wa,TH,1554844554,17.49,104.1,0,91,23.05,0.76
Lavrentiya,RU,1554844554,65.58,-170.99,92,100,-8.95,5.81
Pimentel,BR,1554844555,-3.7,-45.5,80,91,25.1,0.61
Khandagayty,MN,1554844555,50.73,92.07,0,70,-9.9,1.21
Leningradskiy,RU,1554844555,69.38,178.42,8,78,-18.2,7.86
Veydelevka,RU,1554844555,50.15,38.45,88,67,12.15,3.11
Chiplun,IN,1554844556,17.53,73.52,0,82,17.15,1.01
Hondo,US,1554844524,29.35,-99.14,1,22,34.44,2.6
Stykkisholmur,IS,1554844556,65.08,-22.73,0,89,3.8,4.46
Gornopravdinsk,RU,1554844556,60.06,69.92,64,82,-3.9,0.96
Pekan,MY,1554840000,3.49,103.39,75,88,25.0,1.0
Hovd,NO,1554844517,63.83,10.7,0,54,-0.57,1.5
Altos,BR,1554840000,-5.04,-42.46,40,66,31.0,1.5
Olecko,PL,1554844557,54.04,22.49,0,87,-1.45,3.56
Iwanai,JP,1554844558,42.97,140.51,8,94,4.05,2.96
